Country,City,Latitude,Long,Temperature(°F),Humidity %,Cloudiness %,Wind Speed(mph),Date
ZA,Port Alfred,-33.5906,26.891,65.3,87,47,2.57,10/23/22 22:23:52
PE,Paita,-5.0892,-81.1144,62.28,85,98,11.48,10/23/22 22:32:08
EC,Puerto Ayora,-0.7393,-90.3518,66.54,88,81,5.99,10/23/22 22:24:49
SB,Kirakira,-10.4544,161.9205,81.37,82,71,6.08,10/23/22 22:24:58
ID,Denpasar,-8.65,115.2167,85.71,79,40,10.36,10/23/22 22:28:24
KI,Butaritari,3.0707,172.7902,81.37,76,20,10.27,10/23/22 22:24:00
US,Jamestown,42.097,-79.2353,58.59,68,0,4.61,10/23/22 22:24:11
AU,Busselton,-33.65,115.3333,64.99,67,15,19.3,10/23/22 22:24:36
PF,Rikitea,-23.1203,-134.9692,72.86,83,57,11.86,10/23/22 22:20:00
CA,Tuktoyaktuk,69.4541,-133.0374,17.6,79,75,4.61,10/23/22 22:32:21
UG,Kalangala,-0.3089,32.225,67.35,75,56,10.69,10/23/22 22:32:23
CA,Yellowknife,62.456,-114.3525,28.92,93,100,6.91,10/23/22 22:23:45
AR,Ushuaia,-54.8,-68.3,40.66,93,0,4.61,10/23/22 22:21:37
AU,Hobart,-42.8794,147.3294,56.26,68,75,11.5,10/23/22 22:22:20
CN,Zhuanghe,39.7008,122.9911,56.08,33,10,7.47,10/23/22 22:32:30
CA,Thompson,55.7435,-97.8558,30.36,69,100,13.8,10/23/22 22:30:30
ZA,Kruisfontein,-34.0033,24.7314,59.88,94,40,2.39,10/23/22 22:32:33
NP,Jumla,29.2747,82.1838,59.29,37,0,3.74,10/23/22 22:32:34
FR,Saint-Junien,45.8833,0.9,59.58,87,74,4.43,10/23/22 22:32:36
BR,Monte Azul Paulista,-20.9072,-48.6414,70.74,49,24,5.95,10/23/22 22:32:38
RU,Pevek,69.7008,170.3133,14.14,95,100,2.48,10/23/22 22:24:39
MV,Hithadhoo,-0.6,73.0833,81.9,72,42,7.11,10/23/22 22:32:41
CD,Inongo,-1.95,18.2667,70.81,98,100,2.82,10/23/22 22:32:43
PF,Faanui,-16.4833,-151.75,79.52,74,17,8.7,10/23/22 22:32:45
ZA,Cape Town,-33.9258,18.4232,65.91,78,1,5.99,10/23/22 22:19:27
CK,Avarua,-21.2078,-159.775,75.25,94,75,5.75,10/23/22 22:23:35
IN,Kattivākkam,13.2167,80.3167,80.69,51,81,7.49,10/23/22 22:32:50
CA,Marystown,47.1666,-55.1483,53.47,78,99,8.77,10/23/22 22:25:32
US,Barrow,71.2906,-156.7887,24.82,86,100,21.85,10/23/22 22:21:13
US,Albany,42.6001,-73.9662,53.46,83,100,1.61,10/23/22 22:24:17
RU,Yar-Sale,66.8333,70.8333,29.95,96,100,4.76,10/23/22 22:32:56
MN,Mandalgovi,45.7625,106.2708,50.92,28,0,15.48,10/23/22 22:32:57
PT,Barcelos,41.5388,-8.6151,60.94,95,80,6.4,10/23/22 22:32:59
ZA,Hermanus,-34.4187,19.2345,61.81,85,45,10.78,10/23/22 22:23:14
ML,Tessalit,20.1986,1.0114,72.0,24,100,13.27,10/23/22 22:33:02
RE,Saint-Philippe,-21.3585,55.7679,72.99,80,44,7.63,10/23/22 22:23:10
GL,Qaanaaq,77.484,-69.3632,20.37,93,100,1.86,10/23/22 22:24:38
AU,Yulara,-25.2406,130.9889,85.37,27,0,7.02,10/23/22 22:33:07
US,Great Falls,47.5002,-111.3008,34.16,98,100,14.97,10/23/22 22:33:09
RU,Tsimmerbude,54.675,20.1347,48.25,94,94,7.18,10/23/22 22:33:11
MX,Celestún,20.8667,-90.4,74.77,84,7,15.32,10/23/22 22:33:13
IT,Laas,46.6166,10.7002,58.08,96,98,4.05,10/23/22 22:33:15
ZA,Bredasdorp,-34.5322,20.0403,61.63,91,60,6.15,10/23/22 22:33:17
CL,Constitución,-35.3333,-72.4167,46.38,76,0,6.22,10/23/22 22:33:18
GB,Thurso,58.5927,-3.5259,53.85,96,100,18.79,10/23/22 22:33:20
PF,Tiarei,-17.5333,-149.3333,78.53,75,13,7.78,10/23/22 22:33:22
LY,Nālūt,30.3333,10.85,62.78,39,0,7.76,10/23/22 22:33:24
VE,Upata,8.0086,-62.3989,74.19,97,100,3.83,10/23/22 22:33:26
CL,Punta Arenas,-53.15,-70.9167,44.71,70,0,16.11,10/23/22 22:23:49
RU,Provideniya,64.3833,-173.3,28.51,69,75,2.24,10/23/22 22:25:09
BO,Santa Cruz de la Sierra,-17.8,-63.1667,71.06,83,56,4.61,10/23/22 22:32:01
PT,Lata,40.1629,-8.3327,58.08,94,49,4.32,10/23/22 22:33:33
PH,Dingle,10.9995,122.6711,87.69,66,100,7.7,10/23/22 22:33:34
US,Safford,32.834,-109.7076,59.92,63,100,13.8,10/23/22 22:33:36
NC,Poum,-20.2333,164.0167,77.4,82,28,25.26,10/23/22 22:33:38
MU,Souillac,-20.5167,57.5167,71.98,88,75,3.44,10/23/22 22:33:39
IS,Grindavik,63.8424,-22.4338,43.27,81,75,20.71,10/23/22 22:33:41
VE,San Cristobal,7.7669,-72.225,71.78,95,70,1.79,10/23/22 22:33:43
US,Mattawa,46.7379,-119.9028,49.26,49,53,3.0,10/23/22 22:33:19
ML,Araouane,18.9048,-3.5265,78.71,15,97,10.8,10/23/22 22:33:46
AU,Batemans Bay,-35.7167,150.1833,66.09,98,100,11.48,10/23/22 22:33:48
AR,Bell Ville,-32.6259,-62.6887,60.67,57,4,8.93,10/23/22 22:33:50
ES,Cervo,43.6702,-7.4101,60.55,73,23,13.91,10/23/22 22:33:52
US,Kapaa,22.0752,-159.319,80.1,79,75,13.8,10/23/22 22:25:05
IN,Joshīmath,30.5667,79.5667,64.35,30,0,3.96,10/23/22 22:33:55
RU,Vostok,46.4856,135.8833,37.33,48,18,6.62,10/23/22 22:33:56
JP,Sekichō-furumaya,34.85,136.4,68.92,44,7,10.85,10/23/22 22:33:58
RU,Yerbogachën,61.2767,108.0108,30.18,63,100,21.72,10/23/22 22:34:00
HK,Hong Kong,22.2855,114.1577,83.97,71,16,10.0,10/23/22 22:30:14
ZM,Kaoma,-14.7833,24.8,63.21,77,70,4.36,10/23/22 22:34:04
JP,Kushiro,42.975,144.3747,50.95,62,75,13.8,10/23/22 22:34:05
IS,Husavik,66.0449,-17.3389,31.55,77,100,8.61,10/23/22 22:34:07
CA,Torbay,47.6666,-52.7314,52.57,92,20,8.05,10/23/22 22:34:09
MY,George Town,5.4112,100.3354,87.73,77,40,4.61,10/23/22 22:29:30
CA,Norman Wells,65.282,-126.8329,24.84,93,100,2.3,10/23/22 22:34:12
CA,Iqaluit,63.7506,-68.5145,29.93,80,75,12.66,10/23/22 22:34:14
RU,Sovetskiy,61.3614,63.5842,34.29,77,100,13.33,10/23/22 22:34:16
MU,Bambous Virieux,-20.3428,57.7575,73.22,88,75,3.44,10/23/22 22:24:55
UA,Kosmach,48.7509,24.3673,46.54,87,77,5.32,10/23/22 22:34:19
SN,Matam,15.6175,-13.3303,82.4,65,40,6.91,10/23/22 22:34:21
CA,Senneterre,48.3835,-77.2328,51.17,90,46,5.41,10/23/22 22:34:23
RU,Umba,66.6871,34.3429,35.06,85,77,14.54,10/23/22 22:34:25
AU,Kiama,-34.6833,150.8667,66.58,95,100,1.01,10/23/22 22:34:27
RU,Lavrentiya,65.5833,-171.0,29.05,88,65,6.17,10/23/22 22:34:28
PR,Arecibo,18.4724,-66.7157,80.01,89,16,7.58,10/23/22 22:34:30
RU,Kovylkino,54.0388,43.9139,41.45,92,100,13.53,10/23/22 22:34:33
US,Payson,40.0444,-111.7321,34.92,90,100,16.11,10/23/22 22:34:35
US,Brigantine,39.4101,-74.3646,60.03,96,100,10.36,10/23/22 22:34:37
BR,Arraial do Cabo,-22.9661,-42.0278,71.26,79,92,4.29,10/23/22 22:25:01
NZ,Tuatapere,-46.1333,167.6833,50.49,60,91,6.08,10/23/22 22:34:40
PL,Toruń,53.0137,18.5981,50.7,99,100,1.01,10/23/22 22:33:00
TO,Vaini,-21.2,-175.2,77.16,65,20,14.97,10/23/22 22:34:43
NG,Bama,11.5221,13.6856,77.49,61,92,6.33,10/23/22 22:34:44
TZ,Kilindoni,-7.9139,39.6668,77.05,75,9,8.55,10/23/22 22:34:46
SA,Najrān,17.4924,44.1277,61.45,29,0,1.3,10/23/22 22:34:48
PF,Atuona,-9.8,-139.0333,77.04,75,3,17.45,10/23/22 22:34:49
NZ,Bluff,-46.6,168.3333,48.45,55,90,14.09,10/23/22 22:34:51
CA,Ucluelet,48.9329,-125.5528,50.09,91,100,5.01,10/23/22 22:34:53
AU,Carnarvon,-24.8667,113.6333,71.02,58,24,16.75,10/23/22 22:34:55
MX,Guerrero Negro,27.9769,-114.0611,67.73,77,1,16.73,10/23/22 22:34:56
AR,Puerto Madryn,-42.7692,-65.0385,65.46,24,20,11.95,10/23/22 22:34:58
RU,Svetlaya,46.5389,138.3297,43.16,45,2,6.17,10/23/22 22:35:00
PT,Ribeira Grande,38.5167,-28.7,62.78,80,46,7.0,10/23/22 22:25:16
CN,Yumen,40.2833,97.2,59.13,18,4,2.82,10/23/22 22:35:03
CN,Songyuan,45.1171,124.8568,46.99,29,2,3.33,10/23/22 22:35:05
CN,Xuzhou,34.1805,117.1571,72.46,25,28,5.84,10/23/22 22:35:07
BR,São João da Barra,-21.6403,-41.0511,70.21,88,90,4.99,10/23/22 22:35:09
BR,Terra Santa,-2.1042,-56.4869,79.2,68,27,2.19,10/23/22 22:35:10
US,Kahului,20.8947,-156.47,82.42,70,40,21.85,10/23/22 22:34:40
ZA,Springbok,-29.6643,17.8865,53.87,78,41,3.02,10/23/22 22:35:14
JP,Nara,34.6851,135.8049,67.96,40,31,9.64,10/23/22 22:35:15
RU,Dikson,73.5069,80.5464,28.18,77,100,22.88,10/23/22 22:35:17
GF,Iracoubo,5.4802,-53.2011,80.11,86,84,11.18,10/23/22 22:35:19
AL,Durrës,41.3231,19.4414,51.98,64,0,3.6,10/23/22 22:35:21
AU,New Norfolk,-42.7826,147.0587,56.91,74,99,3.0,10/23/22 22:35:23
US,Sitka,57.0531,-135.33,48.09,57,100,12.66,10/23/22 22:33:56
GL,Tasiilaq,65.6145,-37.6368,32.16,99,100,4.32,10/23/22 22:25:27
MX,Nicolás Bravo,18.45,-88.9167,68.9,96,0,1.86,10/23/22 22:35:28
ZA,Saldanha,-33.0117,17.9442,57.25,93,37,10.71,10/23/22 22:35:30
RU,Vakhtan,57.9659,46.6889,40.21,94,100,10.51,10/23/22 22:35:32
US,Eureka,40.8021,-124.1637,53.92,85,6,8.01,10/23/22 22:35:33
KZ,Borovskoy,53.8,64.15,28.85,67,8,11.97,10/23/22 22:35:35
AR,Bermejo,-32.8833,-68.8,66.11,45,1,2.3,10/23/22 22:35:37
ZA,East London,-33.0153,27.9116,65.34,94,40,3.44,10/23/22 22:35:39
US,Carbondale,37.7273,-89.2168,70.09,56,0,12.66,10/23/22 22:34:25
RU,Cherskiy,68.75,161.3,6.26,97,92,6.35,10/23/22 22:35:42
AU,Mount Isa,-20.7333,139.5,100.15,17,23,23.71,10/23/22 22:35:43
HN,Santa Rosa de Aguán,15.95,-85.7167,76.98,88,2,6.08,10/23/22 22:35:45
IS,Vestmannaeyjar,63.4427,-20.2734,44.15,81,100,19.86,10/23/22 22:35:47
SO,Mogadishu,2.0371,45.3438,78.67,78,40,8.05,10/23/22 22:35:49
MR,Adrar,20.5022,-10.0711,79.03,16,26,10.65,10/23/22 22:35:50
ES,Calatayud,41.3535,-1.6432,57.92,83,98,5.64,10/23/22 22:34:20
RU,Tiksi,71.6872,128.8694,21.15,95,98,7.76,10/23/22 22:35:53
BR,Pacatuba,-3.9842,-38.6203,79.97,91,26,3.76,10/23/22 22:35:55
BR,Vilhena,-12.7406,-60.1458,69.22,97,89,2.53,10/23/22 22:35:57
ZA,Plettenberg Bay,-34.0527,23.3716,60.37,88,34,3.0,10/23/22 22:35:59
TR,Talas,38.6908,35.5538,32.67,93,0,0.0,10/23/22 22:36:00
US,Bethel,41.3712,-73.414,57.38,68,100,6.91,10/23/22 22:33:26
RU,Igarka,67.4667,86.5833,26.42,89,100,17.94,10/23/22 22:36:04
BR,São Geraldo do Araguaia,-6.4006,-48.555,79.47,63,21,2.39,10/23/22 22:36:06
PT,Praia da Vitória,38.7333,-27.0667,61.05,94,40,14.47,10/23/22 22:36:08
ES,Los Llanos de Aridane,28.6585,-17.9182,64.15,72,0,6.91,10/23/22 22:36:10
NO,Stokmarknes,68.5646,14.9108,35.56,93,75,8.05,10/23/22 22:36:12
ID,Amuntai,-2.4177,115.2494,87.67,64,93,2.1,10/23/22 22:36:13
CA,Maniwaki,46.3834,-75.966,44.98,87,100,0.0,10/23/22 22:31:29
RU,Belaya Gora,68.5333,146.4167,5.38,84,37,4.07,10/23/22 22:36:17
PT,Ponta do Sol,32.6667,-17.1,70.43,65,100,7.02,10/23/22 22:36:18
RU,Shafranovo,53.9667,54.7667,34.03,69,97,12.66,10/23/22 22:36:20
BI,Muyinga Province,-2.8333,30.3333,59.05,78,91,0.13,10/23/22 22:36:22
GL,Upernavik,72.7868,-56.1549,21.06,75,36,4.94,10/23/22 22:36:25
ID,Nabire,-3.3667,135.4833,87.8,63,99,6.33,10/23/22 22:36:26
US,Rome,43.2128,-75.4557,57.72,66,0,4.61,10/23/22 22:35:03
ES,Cabra,37.4725,-4.4421,60.22,86,99,0.76,10/23/22 22:36:30
,Walvis Bay,-22.9575,14.5053,58.15,88,48,9.22,10/23/22 22:36:31
US,Hilo,19.7297,-155.09,78.53,82,75,5.75,10/23/22 22:32:08
VN,Tuy Hoa,13.0833,109.3,82.85,69,100,9.44,10/23/22 22:36:34
AU,Kununurra,-15.7667,128.7333,106.48,15,15,11.43,10/23/22 22:36:36
US,Morehead,37.2711,-87.1764,62.35,62,0,4.61,10/23/22 22:36:38
MX,Cabo San Lucas,22.8909,-109.9124,79.9,71,18,10.0,10/23/22 22:32:21
GL,Nuuk,64.1835,-51.7216,34.41,100,75,14.97,10/23/22 22:36:41
CA,Canmore,51.0834,-115.3521,29.68,99,51,2.3,10/23/22 22:33:25
RU,Tokur,53.1333,132.9,29.14,53,45,7.45,10/23/22 22:36:44
PH,Aloleng,16.1307,119.7824,86.7,65,78,3.06,10/23/22 22:36:46
MR,Atar,20.5169,-13.0499,82.27,17,0,4.97,10/23/22 22:33:11
AO,Mossamedes,-15.1961,12.1522,67.23,87,57,5.26,10/23/22 22:36:49
PG,Kiunga,-6.1219,141.2906,96.62,41,99,1.12,10/23/22 22:36:51
SO,Bandarbeyla,9.4942,50.8122,78.76,76,49,2.08,10/23/22 22:36:52
PG,Kimbe,-5.5502,150.1429,88.29,57,79,5.46,10/23/22 22:36:54
US,Roseburg,43.2165,-123.3417,50.11,76,0,0.0,10/23/22 22:33:09
CA,Prince Rupert,54.3161,-130.3201,50.09,84,100,37.98,10/23/22 22:36:57
RU,Leningradskiy,69.3833,178.4167,19.63,93,100,12.64,10/23/22 22:36:59
CL,Coquimbo,-29.9533,-71.3436,51.53,93,0,4.61,10/23/22 22:33:25
CA,Shaunavon,49.6501,-108.4181,28.18,95,100,16.6,10/23/22 22:37:02
CA,Chapais,49.7834,-74.8492,44.38,92,16,4.83,10/23/22 22:32:51
CN,Luoyang,34.6836,112.4536,72.48,32,90,6.13,10/23/22 22:37:05
AU,Codrington,-38.2667,141.9667,54.93,96,100,16.87,10/23/22 22:37:07
BR,Vila Velha,-20.3297,-40.2925,71.55,88,75,4.61,10/23/22 22:37:09
NO,Vardø,70.3705,31.1107,35.58,87,75,6.91,10/23/22 22:37:11
RU,Sheltozero,61.3667,35.3667,34.88,78,11,15.3,10/23/22 22:37:13
US,Moses Lake,47.1301,-119.2781,48.56,57,0,9.22,10/23/22 22:36:34
CL,Ancud,-41.8697,-73.8203,50.92,93,100,19.37,10/23/22 22:33:41
GB,Northam,51.0333,-4.2167,54.61,96,98,13.22,10/23/22 22:37:18
RU,Khatanga,71.9667,102.5,2.75,90,61,6.31,10/23/22 22:37:20
UG,Katakwi,1.8911,33.9661,67.8,69,3,3.36,10/23/22 22:37:21
DZ,Constantine,36.365,6.6147,56.61,50,0,2.3,10/23/22 22:37:15
CN,Aksu,41.1231,80.2644,58.42,26,100,3.27,10/23/22 22:37:25
BR,Castro,-24.7911,-50.0119,58.01,85,25,1.74,10/23/22 22:37:27
BR,Alta Floresta,-9.8756,-56.0861,71.87,95,77,1.66,10/23/22 22:37:29
RU,Yertarskiy,56.7902,64.2995,32.95,54,26,12.86,10/23/22 22:37:30
RU,Chokurdakh,70.6333,147.9167,-2.31,94,60,7.29,10/23/22 22:37:32
ID,Pangkalanbuun,-2.6833,111.6167,86.38,63,99,5.46,10/23/22 22:37:34
OM,Salalah,17.0151,54.0924,75.29,69,0,2.3,10/23/22 22:37:36
VN,Kwang Binh,17.4833,106.6,81.27,67,95,8.55,10/23/22 22:37:37
BR,Carauari,-4.8828,-66.8958,73.35,99,92,1.99,10/23/22 22:37:39
US,Palmer,42.1584,-72.3287,54.63,77,100,5.75,10/23/22 22:37:41
CN,Xichang,27.8964,102.2634,68.63,72,82,2.75,10/23/22 22:37:43
CL,Vallenar,-28.5708,-70.7581,62.64,48,0,1.74,10/23/22 22:37:44
RU,Urusha,54.05,122.9,35.31,46,94,4.97,10/23/22 22:37:46
FI,Rovaniemi,66.5,25.7167,29.61,80,40,8.05,10/23/22 22:37:48
SO,Bosaso,11.2842,49.1816,81.27,71,29,5.59,10/23/22 22:37:49
US,Broome,42.2506,-75.833,58.01,80,20,4.61,10/23/22 22:37:51
CA,La Tuque,47.4334,-72.7824,46.65,87,100,0.0,10/23/22 22:37:53
CN,Panzhihua,26.5851,101.7128,76.26,64,55,2.06,10/23/22 22:37:54
SA,Buraidah,26.326,43.975,61.25,17,0,9.46,10/23/22 22:37:56
GR,Palekastro,35.2,26.25,66.7,66,0,10.54,10/23/22 22:37:58
RU,Kamenka,51.3223,42.7678,42.66,91,100,12.28,10/23/22 22:38:00
CD,Mwene-Ditu,-7.0,23.45,64.94,83,53,3.85,10/23/22 22:38:02
IN,Kavaratti,10.5669,72.642,81.36,73,43,1.9,10/23/22 22:38:03
CL,Lebu,-37.6167,-73.65,47.68,87,99,8.39,10/23/22 22:38:06
FI,Kemijärvi,66.7131,27.4306,33.96,77,100,6.73,10/23/22 22:38:08
DK,Langå,56.3903,9.8949,54.72,97,100,14.05,10/23/22 22:38:09
PE,Puquio,-14.7,-74.1333,49.33,30,53,5.1,10/23/22 22:38:11
RU,Saskylakh,71.9167,114.0833,0.86,99,84,2.39,10/23/22 22:38:13
US,Saint Paul Harbor,57.79,-152.4072,44.11,42,0,6.91,10/23/22 22:38:14
IN,Paithan,19.4833,75.3833,75.94,48,0,3.85,10/23/22 22:38:17
NO,Andenes,69.3143,16.1194,35.58,80,75,12.66,10/23/22 22:38:19
CA,Sioux Lookout,50.1001,-91.917,53.67,82,20,6.91,10/23/22 22:38:20
KZ,Beyneu,45.3167,55.2,44.76,76,1,11.77,10/23/22 22:38:22
SZ,Nsoko,-27.0333,31.95,70.23,89,100,2.77,10/23/22 22:38:24
AR,Rawson,-43.3002,-65.1023,63.5,28,61,7.81,10/23/22 22:38:26
CA,Bonavista,48.6499,-53.1147,51.31,79,0,13.69,10/23/22 22:38:28
GB,Margate,51.3813,1.3862,58.3,86,69,8.99,10/23/22 22:38:30
SB,Honiara,-9.4333,159.95,82.98,79,99,4.16,10/23/22 22:38:31
JP,Katsuura,35.1333,140.3,58.01,83,100,20.13,10/23/22 22:38:33
MX,Bucerías,20.75,-105.3333,78.78,89,100,5.75,10/23/22 22:38:35
AR,Mar del Plata,-38.0023,-57.5575,56.88,90,0,15.99,10/23/22 22:38:37
SJ,Longyearbyen,78.2186,15.6401,22.84,74,75,8.05,10/23/22 22:38:38
IN,Port Blair,11.6667,92.75,86.04,74,75,16.11,10/23/22 22:38:40
KR,Seoul,37.5683,126.9778,58.39,39,0,13.8,10/23/22 22:37:19
AO,Menongue,-14.6585,17.691,62.67,84,84,3.53,10/23/22 22:38:43
CA,Channel-Port aux Basques,47.5702,-59.1367,51.94,81,94,7.02,10/23/22 22:38:45
RU,Verkhnevilyuysk,63.4453,120.3167,36.97,94,100,12.82,10/23/22 22:38:47
LR,Harper,4.375,-7.7169,76.64,88,100,6.85,10/23/22 22:38:49
US,Portland,45.5234,-122.6762,51.94,78,0,4.0,10/23/22 22:38:13
CN,Xinzhi,36.4989,111.7047,70.14,19,95,3.71,10/23/22 22:38:52
US,Fairbanks,64.8378,-147.7164,30.16,95,100,0.0,10/23/22 22:38:54
MU,Quatre Cocos,-20.2078,57.7625,74.08,74,57,11.07,10/23/22 22:38:55
TZ,Tingi,-11.3,35.0333,64.36,70,32,5.75,10/23/22 22:38:57
CN,Beijing,39.9075,116.3972,60.69,26,0,2.01,10/23/22 22:37:18
RU,Kaduy,59.2,37.15,33.3,82,24,7.9,10/23/22 22:39:00
CN,Mergen,49.1833,125.2167,43.07,30,0,5.68,10/23/22 22:39:02
RU,Tambovka,50.0969,128.0489,41.58,35,1,5.73,10/23/22 22:39:04
US,San Patricio,28.017,-97.5169,80.49,75,93,18.63,10/23/22 22:39:06
AU,Gawler,-34.6,138.7333,63.91,93,100,7.36,10/23/22 22:39:07
SD,Kutum,14.2,24.6667,70.25,28,93,16.73,10/23/22 22:39:09
MY,Kuching,1.55,110.3333,84.42,79,20,6.91,10/23/22 22:39:11
US,Freeport,40.6576,-73.5832,58.5,82,100,9.22,10/23/22 22:39:12
GF,Sinnamary,5.3833,-52.95,79.84,86,78,10.54,10/23/22 22:39:14
FR,Saint-François,46.4154,3.9054,58.44,82,0,4.61,10/23/22 22:39:16
NC,Tadine,-21.55,167.8833,73.94,71,100,19.69,10/23/22 22:39:18
IN,Rangāpāra,26.8167,92.65,73.0,79,100,9.24,10/23/22 22:39:20
TZ,Laela,-8.5667,32.05,63.46,59,74,2.28,10/23/22 22:39:22
ES,Altea,38.5989,-0.0514,68.2,69,76,3.51,10/23/22 22:39:23
BB,Bathsheba,13.2167,-59.5167,83.01,83,75,13.8,10/23/22 22:39:25
CN,Datong,40.0936,113.2914,58.44,16,0,5.5,10/23/22 22:39:27
RU,Esso,55.9333,158.7,23.18,92,49,1.16,10/23/22 22:39:28
IR,Pārsābād,39.6482,47.9174,44.92,93,0,6.91,10/23/22 22:39:30
AU,Geraldton,-28.7667,114.6,67.5,54,90,18.5,10/23/22 22:39:32
US,Ketchikan,55.3422,-131.6461,48.67,93,100,16.11,10/23/22 22:35:23
ID,Bengkulu,-3.8004,102.2655,80.55,81,81,5.44,10/23/22 22:39:35
PG,Lorengau,-2.0226,147.2712,86.43,56,93,6.51,10/23/22 22:39:36
MM,Dawei,14.0833,98.2,87.69,63,17,3.02,10/23/22 22:39:38
CV,Praia,14.9215,-23.5087,75.74,78,20,12.66,10/23/22 22:39:40
US,Fortuna,40.5982,-124.1573,53.65,86,0,6.91,10/23/22 22:38:37
PT,Lagoa,39.05,-27.9833,64.44,72,15,17.98,10/23/22 22:39:43
MY,Segamat,2.5148,102.8158,86.07,62,100,3.56,10/23/22 22:39:45
AR,Río Gallegos,-51.6226,-69.2181,51.85,50,40,10.36,10/23/22 22:39:47
AU,Victor Harbor,-35.5667,138.6167,61.68,89,100,8.79,10/23/22 22:39:49
RU,Gazimurskiy Zavod,51.5461,118.3266,45.5,37,31,10.11,10/23/22 22:39:50
AI,The Valley,18.217,-63.0578,82.26,76,6,12.91,10/23/22 22:39:52
PE,Pisco,-13.7,-76.2167,60.85,82,0,12.66,10/23/22 22:39:54
US,Hamilton,39.1834,-84.5333,63.45,63,20,4.61,10/23/22 22:35:37
US,Saint George,37.1041,-113.5841,46.99,55,0,5.75,10/23/22 22:39:57
RU,Chunskiy,56.0815,99.6342,35.74,64,99,12.91,10/23/22 22:39:59
IN,Alappuzha,9.49,76.3264,80.56,77,45,1.05,10/23/22 22:40:01
BR,Cidreira,-30.1811,-50.2056,56.89,86,2,4.97,10/23/22 22:40:02
ES,Teguise,29.0605,-13.564,64.62,83,0,8.05,10/23/22 22:40:04
KM,Mitsamiouli,-11.3847,43.2844,77.29,73,20,8.05,10/23/22 22:40:06
CN,Hohhot,40.8106,111.6522,57.49,21,0,2.24,10/23/22 22:40:08
BR,Entre Rios,-11.9419,-38.0844,69.91,99,61,2.35,10/23/22 22:35:19
RU,Beringovskiy,63.05,179.3167,24.24,70,19,1.07,10/23/22 22:40:11
PW,Kloulklubed,7.0419,134.2556,83.55,79,76,17.65,10/23/22 22:40:13
RU,Severo-Kuril'sk,50.6789,156.125,39.88,72,61,8.37,10/23/22 22:40:15
US,Lompoc,34.6391,-120.4579,57.34,76,0,12.66,10/23/22 22:40:17
TM,Bereket,39.2446,55.5154,57.96,69,7,8.55,10/23/22 22:40:19
TW,Keelung,25.1283,121.7419,77.05,64,100,17.31,10/23/22 22:40:21
RU,Deputatsky,69.3,139.9,8.53,90,100,3.0,10/23/22 22:40:23
IR,Birjand,32.8663,59.2211,50.47,32,0,9.22,10/23/22 22:40:25
TD,Bokoro,12.3807,17.0568,83.25,43,92,4.0,10/23/22 22:40:26
CA,Haines Junction,60.7522,-137.5108,30.15,69,100,12.66,10/23/22 22:40:28
MX,Puerto Escondido,15.85,-97.0667,80.2,86,77,5.41,10/23/22 22:40:30
CA,Clyde River,70.4692,-68.5914,25.03,93,100,9.22,10/23/22 22:40:32
RU,Talnakh,69.4865,88.3972,24.21,96,99,8.61,10/23/22 22:40:33
RU,Vagay,57.9375,69.0217,31.57,64,100,13.02,10/23/22 22:40:35
US,Makakilo City,21.3469,-158.0858,82.72,63,20,14.97,10/23/22 22:40:37
RU,Agirish,61.9247,63.0231,33.93,77,100,13.58,10/23/22 22:40:38
NZ,Dargaville,-35.9333,173.8833,62.24,65,27,9.89,10/23/22 22:40:40
US,College,64.8569,-147.8028,30.15,95,75,0.0,10/23/22 22:40:42
BR,Touros,-5.1989,-35.4608,77.49,81,14,11.5,10/23/22 22:40:43
CN,Luancheng,37.8792,114.6517,62.76,22,0,2.21,10/23/22 22:40:45
UY,Chui,-33.6971,-53.4616,55.31,93,24,5.23,10/23/22 22:40:47
NO,Roald,62.5833,6.1333,49.75,87,20,4.61,10/23/22 22:40:48
BR,Porto Belo,-27.1578,-48.5531,67.78,86,88,3.18,10/23/22 22:40:50
LY,Ubari,26.5921,12.7805,58.32,36,0,5.73,10/23/22 22:40:52
BR,Prainha,-1.8,-53.48,79.16,75,67,4.16,10/23/22 22:40:53
PT,Vila Franca do Campo,37.7167,-25.4333,63.01,74,66,16.75,10/23/22 22:40:55
SS,Kapoeta,4.7717,33.5903,76.71,60,10,7.9,10/23/22 22:40:57
BR,Boa Vista,2.8197,-60.6733,82.38,78,40,2.3,10/23/22 22:40:58
US,Hopkinsville,36.8656,-87.4886,66.24,69,29,8.9,10/23/22 22:41:00
BR,Barreiras,-12.1528,-44.99,70.0,92,76,3.38,10/23/22 22:40:16
US,Price,39.5994,-110.8107,37.11,55,0,13.8,10/23/22 22:41:04
SL,Bonthe,7.5264,-12.505,76.89,85,84,2.62,10/23/22 22:41:05
BR,Belmonte,-15.8631,-38.8828,73.76,90,70,4.99,10/23/22 22:41:07
IN,Konch,25.9833,79.15,77.56,42,0,5.75,10/23/22 22:41:09
FO,Klaksvík,62.2266,-6.589,47.32,88,100,20.51,10/23/22 22:41:10
VN,Cao Bang,22.6667,106.25,85.24,44,54,3.91,10/23/22 22:41:12
AU,Sydney,-33.8679,151.2073,69.28,91,75,8.05,10/23/22 22:39:41
BJ,Porto-Novo,6.4965,2.6036,76.82,90,91,2.37,10/23/22 22:36:25
ES,Puerto del Rosario,28.5004,-13.8627,71.35,83,75,8.05,10/23/22 22:41:17
IS,Hofn,64.2539,-15.2082,40.21,79,100,9.84,10/23/22 22:41:19
AO,Luanda,-8.8368,13.2343,74.91,88,98,6.2,10/23/22 22:41:20
BR,Morros,-9.4467,-46.3003,74.62,71,73,2.35,10/23/22 22:41:22
UG,Sironko,1.2313,34.2477,65.16,71,5,4.43,10/23/22 22:41:24
US,Zephyrhills,28.2336,-82.1812,70.18,80,0,3.44,10/23/22 22:41:25
ZA,Richards Bay,-28.783,32.0377,70.29,92,100,2.13,10/23/22 22:41:27
IN,Tura,25.5198,90.2201,69.4,94,100,2.3,10/23/22 22:41:29
ER,Edd,13.9297,41.6925,86.4,47,1,10.4,10/23/22 22:41:30
SK,Čadca,49.435,18.789,52.77,95,100,4.27,10/23/22 22:41:32
AU,Port Macquarie,-31.4333,152.9167,67.89,94,100,3.11,10/23/22 22:41:34
RU,Usinsk,65.9939,57.5281,29.61,97,99,13.18,10/23/22 22:41:36
RU,Tazovsky,67.4667,78.7,25.14,90,84,10.92,10/23/22 22:41:37
ID,Meulaboh,4.1363,96.1285,84.76,67,99,6.55,10/23/22 22:41:39
CO,Padilla,3.2204,-76.3139,72.97,96,100,0.87,10/23/22 22:41:41
AU,Gold Coast,-28.0,153.4333,88.25,61,40,10.36,10/23/22 22:36:54
US,Fulton,33.7668,-84.4499,57.94,69,0,0.0,10/23/22 22:38:00
RU,Muzhi,65.3667,64.6667,30.0,83,49,7.07,10/23/22 22:41:46
TD,Umm Hājar,13.2954,19.6966,83.82,21,90,10.85,10/23/22 22:41:47
NP,Dhangadhi,28.7079,80.5961,78.21,42,0,1.66,10/23/22 22:41:49
IN,Jejūri,18.2833,74.1667,73.18,50,0,2.51,10/23/22 22:41:51
JP,Kushima,31.4583,131.2333,72.91,39,13,8.95,10/23/22 22:41:52
AU,Flinders,-34.5833,150.8552,66.38,94,100,7.0,10/23/22 22:41:54
IN,Tandur,17.2333,77.5833,74.5,60,1,6.46,10/23/22 22:41:56
PG,Port Moresby,-9.4431,147.1797,89.02,62,20,17.27,10/23/22 22:41:57
IN,Yārāda,17.65,83.2667,82.72,57,40,4.61,10/23/22 22:41:59
CN,Wanning,18.8003,110.3967,76.91,92,91,12.41,10/23/22 22:42:01
EG,Assiut,27.181,31.1837,60.98,59,0,5.66,10/23/22 22:42:02
MU,Mahébourg,-20.4081,57.7,74.25,88,75,3.44,10/23/22 22:42:04
CV,São Filipe,14.8961,-24.4956,78.06,72,0,3.76,10/23/22 22:42:06
US,Miles City,46.4083,-105.8406,34.77,86,100,19.57,10/23/22 22:42:08
CN,Huadian,42.9633,126.7478,43.63,42,20,3.47,10/23/22 22:42:10
BR,Barra dos Coqueiros,-10.9089,-37.0386,77.02,88,20,8.05,10/23/22 22:42:11
GW,Bubaque,11.2833,-15.8333,81.77,72,100,6.78,10/23/22 22:42:13
RU,Batagay,67.6333,134.6333,8.44,84,96,6.6,10/23/22 22:42:15
PF,Fare,-16.7,-151.0167,79.29,73,26,8.05,10/23/22 22:42:17
SB,Gizo Government Station,-8.103,156.8419,83.7,69,96,5.17,10/23/22 22:42:18
PH,San Policarpo,12.1791,125.5072,82.15,84,100,6.35,10/23/22 22:42:20
BD,Teknāf,20.8624,92.3058,77.45,89,100,25.86,10/23/22 22:42:22
RO,Asău,46.4333,26.4,36.52,91,16,5.88,10/23/22 22:42:24
LK,Galle,6.0367,80.217,79.83,82,99,10.09,10/23/22 22:42:25
GB,Stornoway,58.2093,-6.3865,53.92,97,75,8.05,10/23/22 22:42:27
IT,Mortara,45.2473,8.7355,64.06,96,100,0.98,10/23/22 22:42:29
PF,Tautira,-17.7333,-149.15,78.42,77,23,10.85,10/23/22 22:42:30
US,Douglas,41.3,-96.167,78.31,55,0,25.32,10/23/22 22:41:27
CA,Halifax,44.6453,-63.5724,55.4,83,100,5.75,10/23/22 22:40:58
IR,Neyshabur,36.2133,58.7958,62.4,41,2,0.78,10/23/22 22:42:35
RU,Ostrovnoy,68.0531,39.5131,38.37,64,100,25.01,10/23/22 22:42:37
AU,Cairns,-16.9167,145.7667,101.07,71,0,10.36,10/23/22 22:42:38
NC,Noumea,-22.2763,166.4572,82.38,65,100,14.16,10/23/22 22:38:22
AO,Lucapa,-8.4192,20.7447,65.75,95,99,2.53,10/23/22 22:42:42
MZ,Angoche,-16.2325,39.9086,73.58,85,39,11.05,10/23/22 22:42:43
RU,Bilibino,68.0546,166.4372,-2.65,100,98,2.59,10/23/22 22:42:45
PL,Mrągowo,53.8644,21.3051,51.8,97,94,5.93,10/23/22 22:42:46
LR,Buchanan,5.8808,-10.0467,75.56,90,99,2.89,10/23/22 22:42:48
NU,Alofi,-19.0595,-169.9187,75.09,83,100,12.66,10/23/22 22:42:50
NO,Båtsfjord,70.6345,29.7185,35.38,86,100,14.97,10/23/22 22:42:52
US,Juneau,58.3019,-134.4197,38.21,100,40,0.0,10/23/22 22:40:21
RU,Zhigansk,66.7697,123.3711,22.71,93,100,35.84,10/23/22 22:42:55
AU,Ulladulla,-35.35,150.4667,63.5,97,100,13.22,10/23/22 22:42:57
CD,Beni,0.5,29.4667,60.28,97,100,1.25,10/23/22 22:42:59
CN,Weihe,32.9952,105.3247,55.17,97,100,3.44,10/23/22 22:43:00
MA,Tiznit Province,29.5833,-9.5,73.62,14,93,12.71,10/23/22 22:43:02
CN,Hailar,49.2,119.7,46.78,30,37,12.68,10/23/22 22:43:04
CA,Langham,52.3668,-106.9679,31.84,94,100,10.76,10/23/22 22:43:06
RU,Tynda,55.1667,124.7167,33.62,57,100,8.48,10/23/22 22:43:07
PG,Kavieng,-2.5744,150.7967,84.96,65,68,4.41,10/23/22 22:43:09
US,Nome,64.5011,-165.4064,37.47,81,100,16.11,10/23/22 22:43:11
MX,Nuevo Progreso,23.1667,-97.95,79.47,71,100,3.0,10/23/22 22:43:12
UA,Mynay,48.5833,22.2833,55.58,86,100,6.35,10/23/22 22:43:14
MX,Nuevo Casas Grandes,30.4167,-107.9167,65.75,43,49,11.01,10/23/22 22:43:16
ZW,Hwange,-18.3693,26.5019,75.04,45,80,2.48,10/23/22 22:43:18
VU,Sola,-13.8833,167.55,81.27,89,100,2.3,10/23/22 22:43:19
DO,Samaná,19.2056,-69.3369,76.71,89,39,5.91,10/23/22 22:43:21
JP,Muroto-misakicho,33.2833,134.15,65.79,60,56,3.49,10/23/22 22:43:23
AU,Esperance,-33.8667,121.9,59.18,71,100,20.11,10/23/22 22:43:24
US,Pacific Grove,36.6177,-121.9166,60.12,76,0,15.99,10/23/22 22:41:04
US,New Port Richey,28.2442,-82.7193,70.97,81,3,1.99,10/23/22 22:42:36
MX,Acapulco de Juárez,16.8634,-99.8901,82.22,78,40,8.05,10/23/22 22:38:35
GL,Ilulissat,69.2167,-51.1,30.22,86,75,1.14,10/23/22 22:43:30
KH,Lumphat,13.4878,106.9816,86.05,70,50,0.67,10/23/22 22:43:32
VN,Quang Ngai,15.1167,108.8,83.97,67,61,10.29,10/23/22 22:43:34
CN,Xiongyue,40.1774,122.1228,54.21,41,34,4.65,10/23/22 22:43:36
FR,Arrondissement de Tarbes,43.25,0.1667,62.71,72,100,2.3,10/23/22 22:43:38
VE,Puerto Ayacucho,5.6639,-67.6236,75.69,93,100,2.84,10/23/22 22:43:39
RU,Konstantinovka,49.6167,127.9833,42.73,34,0,4.99,10/23/22 22:43:41
PE,Hualmay,-11.0964,-77.6139,61.43,83,85,9.46,10/23/22 22:43:43
AU,Port Augusta,-32.5,137.7667,64.0,69,100,11.03,10/23/22 22:43:44
GB,Lerwick,60.1545,-1.1494,51.8,93,100,17.05,10/23/22 22:43:46
US,Elizabeth City,36.2946,-76.2511,60.82,94,100,13.8,10/23/22 22:38:49
MX,Ixtapa,20.7,-105.2,78.03,89,100,5.75,10/23/22 22:43:49
SO,Oddur,4.1213,43.8894,72.59,77,31,8.48,10/23/22 22:43:51
BR,Juquitiba,-23.9317,-47.0683,67.37,98,34,2.82,10/23/22 22:43:52
JP,Kadoma,34.7333,135.5833,70.65,48,75,5.75,10/23/22 22:43:54
RU,Mil'kovo,54.7167,158.6167,33.76,51,66,0.85,10/23/22 22:43:56
MA,Marrakesh,31.6315,-8.0083,64.47,59,0,5.75,10/23/22 22:43:57
CL,Taltal,-25.4,-70.4833,59.18,78,3,3.36,10/23/22 22:43:59
RU,Gari,59.4307,62.3497,34.2,76,100,16.26,10/23/22 22:44:01
CA,High Level,58.5169,-117.136,26.71,100,100,12.66,10/23/22 22:44:02
MG,Antalaha,-14.9003,50.2788,73.26,71,19,3.89,10/23/22 22:44:04
BR,Diamantino,-14.4086,-56.4461,73.94,85,99,2.91,10/23/22 22:44:06
ET,Dembī Dolo,8.5333,34.8,54.63,92,9,4.68,10/23/22 22:44:08
NP,Bāglung,28.2719,83.5898,74.68,33,0,1.05,10/23/22 22:44:09
US,Bolivar,37.6145,-93.4105,72.95,64,97,3.0,10/23/22 22:44:11
CA,Albanel,48.8832,-72.4487,50.14,93,100,2.3,10/23/22 22:44:13
CA,Fort Nelson,58.8053,-122.7002,29.95,85,100,5.75,10/23/22 22:44:15
IR,Khorramshahr,30.4397,48.1664,69.76,100,5,2.3,10/23/22 22:44:16
PG,Kieta,-6.2167,155.6333,82.98,78,77,3.6,10/23/22 22:44:18
IT,Tricase,39.9304,18.3553,72.32,68,0,2.93,10/23/22 22:44:20
KE,Mariakani,-3.8633,39.4736,73.49,86,89,4.36,10/23/22 22:44:22
RU,Chul'man,56.8479,124.9104,27.01,79,100,10.71,10/23/22 22:44:23
NO,Karasjok,69.4719,25.5112,27.86,96,76,2.42,10/23/22 22:44:25
TH,Ranong,9.9658,98.6348,85.93,70,72,3.67,10/23/22 22:44:27
CF,Bimbo,4.2567,18.4158,73.33,94,40,3.44,10/23/22 22:44:28
GL,Qaqortoq,60.7167,-46.0333,33.66,99,100,5.61,10/23/22 22:44:30
ID,Padang,-0.9492,100.3543,84.25,74,96,5.06,10/23/22 22:44:32
GH,Takoradze,4.8845,-1.7554,76.62,90,31,4.23,10/23/22 22:44:33
JP,Hasaki,35.7333,140.8333,56.21,71,100,21.79,10/23/22 22:44:35
GB,Hastings,50.8552,0.5729,59.29,85,66,33.06,10/23/22 22:43:19
MU,Cap Malheureux,-19.9842,57.6142,74.46,72,33,5.01,10/23/22 22:44:38
CA,Hay River,60.8156,-115.7999,26.58,80,75,6.91,10/23/22 22:44:40
IT,Tempio Pausania,40.8974,9.1035,49.12,45,77,4.61,10/23/22 22:44:42
BR,São Raimundo das Mangabeiras,-7.0219,-45.4811,76.75,68,5,1.57,10/23/22 22:44:43
GH,Obuasi,6.206,-1.6619,70.32,99,84,1.5,10/23/22 22:44:45
TZ,Mgandu,-5.95,34.1333,62.02,80,61,6.76,10/23/22 22:44:47
AU,Roebourne,-20.7833,117.1333,88.23,27,61,13.42,10/23/22 22:44:48
BR,Natal,-5.795,-35.2094,77.22,83,40,6.91,10/23/22 22:44:12
KZ,Semey,50.4111,80.2275,37.62,56,100,6.71,10/23/22 22:44:51
CA,Sainte-Martine,45.2501,-73.7992,55.94,77,100,1.14,10/23/22 22:44:53
BR,Lábrea,-7.2586,-64.7981,73.69,98,94,2.53,10/23/22 22:44:55
ID,Kabanjahe,3.1001,98.4908,71.85,77,100,2.95,10/23/22 22:44:56
JM,Kingston,17.997,-76.7936,77.95,83,20,10.36,10/23/22 22:44:15
NC,Vao,-22.6667,167.4833,72.66,75,100,21.74,10/23/22 22:44:59
RU,Aykhal,66.0,111.5,27.64,96,100,16.73,10/23/22 22:45:01
RU,Ust'-Omchug,61.15,149.6333,6.04,88,93,2.53,10/23/22 22:45:03
AU,Broken Hill,-31.95,141.4333,68.2,55,72,17.43,10/23/22 22:45:05
NE,Ayorou,14.7308,0.9174,79.36,19,1,9.4,10/23/22 22:45:07
RU,Dudinka,69.4058,86.1778,24.62,96,100,11.97,10/23/22 22:45:08
IN,Māngrol,21.1167,70.1167,83.21,46,0,4.38,10/23/22 22:45:10
RU,Batagay-Alyta,67.8006,130.4114,11.91,90,100,4.25,10/23/22 22:45:12
SO,Oodweyne,9.4092,45.064,71.35,70,99,3.8,10/23/22 22:45:14
AR,Comodoro Rivadavia,-45.8667,-67.5,64.26,34,0,25.32,10/23/22 22:45:15
RU,Petropavlovsk-Kamchatskiy,53.0452,158.6483,41.59,36,0,11.18,10/23/22 22:43:06
BR,Pauini,-7.7136,-66.9764,72.7,98,99,1.32,10/23/22 22:45:19
UA,Kyrylivka,46.3759,35.3675,51.94,83,74,17.69,10/23/22 22:45:20
CD,Lusambo,-4.9667,23.45,68.43,98,69,0.2,10/23/22 22:45:22
ML,Goundam,16.4145,-3.6708,80.53,15,81,10.54,10/23/22 22:45:24
TZ,Mpanda,-6.3655,31.0409,67.05,37,100,2.68,10/23/22 22:45:25
RU,Lakhdenpokh'ya,61.5198,30.1992,34.52,78,6,10.36,10/23/22 22:45:27
UG,Kitgum,3.2783,32.8867,67.77,76,2,2.84,10/23/22 22:45:29
MR,Nouadhibou,20.931,-17.0347,69.58,87,6,14.85,10/23/22 22:45:30
SE,Kalmar,56.6616,16.3616,48.13,99,100,3.44,10/23/22 22:45:32
RU,Mirny,62.5353,113.9611,30.96,75,98,22.5,10/23/22 22:45:34
VE,Caraballeda,10.6112,-66.8522,80.67,78,20,1.14,10/23/22 22:45:35
US,‘Āhuimanu,21.4447,-157.8378,83.91,72,20,14.97,10/23/22 22:45:37
CN,Dingzhou,38.5131,114.9956,62.71,23,0,2.68,10/23/22 22:45:39
SA,Sakakah,29.9697,40.2064,69.37,39,13,5.46,10/23/22 22:45:41
CN,Guangyuan,32.442,105.823,62.4,91,100,1.3,10/23/22 22:45:42
NO,Sørland,67.667,12.6934,39.06,58,100,9.95,10/23/22 22:45:44
US,West Wendover,40.7391,-114.0733,38.41,38,0,9.22,10/23/22 22:45:46
JP,Tateyama,34.9833,139.8667,62.1,78,100,19.48,10/23/22 22:45:47
UZ,Yangi Marg`ilon,40.4272,71.7189,50.72,87,40,2.3,10/23/22 22:45:49
RU,Karpogory,64.0019,44.4451,31.39,85,99,9.44,10/23/22 22:45:51
LK,Matara,5.9485,80.5353,82.13,74,100,11.86,10/23/22 22:45:52
AO,Soyo,-6.1349,12.3689,76.5,90,95,6.96,10/23/22 22:45:54
GL,Qasigiannguit,68.8193,-51.1922,30.45,91,100,6.73,10/23/22 22:45:56
MV,Muli,2.9167,73.5667,82.0,79,57,13.82,10/23/22 22:45:57
BR,Formosa do Rio Preto,-11.0483,-45.1931,73.98,70,68,4.47,10/23/22 22:45:59
PE,Pucara,-15.9803,-71.4606,32.13,18,83,4.9,10/23/22 22:46:01
UY,Rocha,-34.4833,-54.3333,51.73,97,19,3.85,10/23/22 22:46:03
RO,Răcari,44.6333,25.7333,51.28,75,3,3.71,10/23/22 22:46:04
RU,Solnechnyy,50.7214,136.6319,40.98,43,38,2.98,10/23/22 22:46:06
MG,Beloha,-25.1667,45.05,74.59,66,1,6.13,10/23/22 22:46:08
AR,Formosa,-26.1775,-58.1781,69.78,83,0,5.75,10/23/22 22:42:43
GB,Brae,60.3964,-1.353,52.88,94,100,14.61,10/23/22 22:46:11
IS,Olafsvik,64.8945,-23.7142,42.85,79,100,13.0,10/23/22 22:46:13
PL,Zambrów,52.9855,22.2432,48.52,96,94,5.64,10/23/22 22:46:15
RU,Kuril'sk,45.2333,147.8833,44.94,70,100,11.12,10/23/22 22:46:17
RU,Verkhoyansk,67.5447,133.385,11.01,87,97,3.94,10/23/22 22:46:19
BR,Santa Maria,-29.6842,-53.8069,58.3,77,0,8.05,10/23/22 22:46:20
SO,Kismayo,-0.3582,42.5454,79.29,73,76,10.38,10/23/22 22:46:22
MX,San Miguel de Cozumel,20.5083,-86.9458,78.69,77,2,10.56,10/23/22 22:45:44
RU,Gayny,60.3071,54.3241,35.28,97,100,13.15,10/23/22 22:46:25
RU,Kyren,51.6828,102.1408,36.75,92,100,8.14,10/23/22 22:46:27
ML,Tombouctou,20.0,-3.0,77.25,17,100,12.33,10/23/22 22:46:29
RU,Evensk,61.95,159.2333,16.23,77,76,8.12,10/23/22 22:46:30
PT,Ponta Delgada,37.7333,-25.6667,63.32,77,20,5.75,10/23/22 22:46:32
KZ,Līsakovsk,52.5369,62.4936,24.69,80,11,8.14,10/23/22 22:46:34
RU,Srednekolymsk,67.45,153.6833,2.28,92,95,3.11,10/23/22 22:46:35
ID,Muncar,-8.4333,114.3333,86.25,70,96,7.83,10/23/22 22:46:37
PH,Dicabisagan,17.0818,122.4157,85.87,67,100,7.63,10/23/22 22:46:39
PH,Tinampo,13.2303,123.5094,92.71,49,74,2.71,10/23/22 22:46:40
MZ,Chimoio,-19.1164,33.4833,66.63,84,8,0.63,10/23/22 22:46:42
OM,Sur,22.5667,59.5289,82.99,34,0,5.95,10/23/22 22:46:44
SO,Eyl,7.9803,49.8164,78.55,77,34,0.6,10/23/22 22:46:45
AU,Narrabri,-30.3167,149.7833,80.53,58,17,3.0,10/23/22 22:46:47
VU,Isangel,-19.55,169.2667,77.11,88,100,13.8,10/23/22 22:46:49
AU,Katherine,-14.4667,132.2667,102.43,25,60,11.16,10/23/22 22:46:51
KE,Taveta,-3.3963,37.6736,68.27,83,80,3.49,10/23/22 22:46:52
NZ,Otane,-39.8833,176.6333,66.0,57,77,9.08,10/23/22 22:46:54
JP,Shimoda,34.6667,138.95,61.16,79,92,18.12,10/23/22 22:46:52
EG,Maţāy,28.419,30.7792,65.25,75,0,8.77,10/23/22 22:46:57
RU,Kholmogory,64.2229,41.656,34.84,97,97,9.35,10/23/22 22:46:59
RU,Safonovo,55.15,33.2167,42.91,89,100,8.97,10/23/22 22:47:00
ET,Korem,12.5058,39.5228,53.71,67,1,2.08,10/23/22 22:47:02
TM,Murgab,37.4966,61.9714,51.67,82,75,9.22,10/23/22 22:47:04
RU,Rudnichnyy,59.617,52.4703,34.72,97,100,13.73,10/23/22 22:47:05
AU,Port Lincoln,-34.7333,135.8667,61.0,81,92,15.59,10/23/22 22:47:07
MN,Darhan,49.4867,105.9228,50.95,32,45,10.22,10/23/22 22:47:09
RE,Saint-Joseph,-21.3667,55.6167,72.1,73,23,3.22,10/23/22 22:47:10
WS,Lufilufi,-13.8745,-171.5986,80.38,82,83,16.6,10/23/22 22:47:12
IN,Nongpoh,25.9,91.8833,71.17,95,100,7.29,10/23/22 22:47:14
ZA,Port Elizabeth,-33.918,25.5701,64.69,94,100,6.91,10/23/22 22:47:15
MX,San Quintín,30.4833,-115.95,63.45,67,0,9.06,10/23/22 22:47:17
CN,Korla,41.7597,86.1469,59.9,28,100,9.64,10/23/22 22:47:19
RU,Amazar,53.858,120.875,36.5,51,100,4.23,10/23/22 22:47:21
LT,Kelmė,55.6339,22.9342,46.42,95,100,3.29,10/23/22 22:47:22
NE,Arlit,18.7369,7.3853,75.02,25,0,8.5,10/23/22 22:47:24
CN,Lanzhou,36.0564,103.7922,62.35,52,74,2.98,10/23/22 22:47:24
JP,Fukuechō,32.6881,128.8419,66.56,37,20,17.27,10/23/22 22:47:27
US,Havelock,34.8791,-76.9013,61.0,91,100,10.36,10/23/22 22:47:29
GL,Nanortalik,60.1432,-45.2371,35.53,99,100,16.28,10/23/22 22:47:31
CD,Manono,-7.3,27.4167,69.84,74,48,0.94,10/23/22 22:47:32
PG,Wewak,-3.5534,143.6268,83.26,73,98,4.99,10/23/22 22:47:34
MM,Lashio,22.9333,97.75,81.48,52,30,2.8,10/23/22 22:47:36
RU,Palana,59.1167,159.9667,27.7,72,38,5.61,10/23/22 22:47:37
ID,Trenggalek,-8.05,111.7167,85.89,70,96,5.79,10/23/22 22:47:39
CN,Xining,36.6167,101.7667,53.35,53,87,2.64,10/23/22 22:47:41
ID,Sabang,5.8933,95.3214,81.63,77,99,13.53,10/23/22 22:47:43
GF,Grand-Santi,4.25,-54.3833,74.3,95,88,2.75,10/23/22 22:47:44
MX,Zacatecas,23.0,-103.0,55.49,93,100,7.02,10/23/22 22:47:10
CL,Tocopilla,-22.092,-70.1979,62.37,66,10,5.86,10/23/22 22:47:47
IR,Sīrjān,29.452,55.6814,64.54,24,0,2.28,10/23/22 22:47:49
ML,Taoudenni,22.6783,-3.9836,77.61,18,78,10.74,10/23/22 22:47:51
IN,Saiha,22.4833,92.9667,69.71,97,100,2.13,10/23/22 22:47:53
ID,Sampit,-2.5333,112.95,87.17,62,100,5.44,10/23/22 22:47:54
CA,Port-Cartier,50.0334,-66.8654,44.28,89,90,3.11,10/23/22 22:47:56
IN,Murshidābād,24.1833,88.2667,79.16,68,99,14.34,10/23/22 22:47:58
